City_ID,City,Lat,Lng,Max Temp,Humidity,Cloudiness,Wind Speed,Country,Date
0,tsiombe,-25.3,45.4833,23.36,84,79,5.01,MG,1703025554
1,yellowknife,62.456,-114.3525,-22.47,84,75,4.63,CA,1703025554
2,edinburgh of the seven seas,-37.0676,-12.3116,16.61,92,88,8.51,SH,1703025554
3,imbituba,-28.24,-48.6703,23.61,89,20,5.54,BR,1703025406
4,ciudad pemex,17.9,-92.5,23.34,83,24,2.31,MX,1703025554
5,grytviken,-54.2811,-36.5092,5.0,84,98,6.16,GS,1703025554
6,bredasdorp,-34.5322,20.0403,15.9,84,7,1.08,ZA,1703025554
7,la'ie,21.6477,-157.9253,26.98,76,100,10.32,US,1703025554
8,tiksi,71.6872,128.8694,-17.37,86,100,5.09,RU,1703025554
9,puerto natales,-51.7236,-72.4875,15.76,68,27,2.69,CL,1703025554
10,cabo san lucas,22.8909,-109.9124,28.17,50,0,6.17,MX,1703025271
11,invercargill,-46.4,168.35,18.19,78,100,2.64,NZ,1703025554
12,camana,-16.6228,-72.7111,21.84,81,64,4.0,PE,1703025555
13,port-aux-francais,-49.35,70.2167,5.12,77,43,13.26,TF,1703025555
14,east london,-33.0153,27.9116,20.88,87,57,6.7,ZA,1703025555
15,saipan,15.1355,145.701,27.39,74,20,5.66,MP,1703025555
16,waitangi,-43.9535,-176.5597,14.41,91,18,5.29,NZ,1703025555
17,sinabang,2.4803,96.3801,26.26,82,99,0.36,ID,1703025555
18,arauco,-37.2463,-73.3175,14.07,82,44,1.83,CL,1703025555
19,bethel,41.3712,-73.414,3.63,64,100,4.12,US,1703025425
20,kalabo,-14.97,22.6814,21.09,91,98,2.04,ZM,1703025555
21,bilibino,68.0546,166.4372,-38.0,100,100,0.37,RU,1703025555
22,hermanus,-34.4187,19.2345,15.45,82,1,3.12,ZA,1703025555
23,port mathurin,-19.6833,63.4167,26.4,82,100,7.41,MU,1703025555
24,longyearbyen,78.2186,15.6401,-7.09,63,0,8.23,SJ,1703025555
25,sitka,57.0531,-135.33,1.94,75,40,0.0,US,1703025555
26,pervomayskoye,43.919,46.7102,4.82,87,8,2.53,RU,1703025555
27,alo,7.4178,6.7371,27.24,38,52,0.6,NG,1703025556
28,tazovsky,67.4667,78.7,-13.2,92,100,9.12,RU,1703025556
29,tadine,-21.55,167.8833,27.2,74,60,1.73,NC,1703025556
30,acarau,-2.8856,-40.12,26.6,83,100,4.69,BR,1703025428
31,albany,42.6001,-73.9662,-0.35,74,79,5.81,US,1703025442
32,nueva esperanza,15.2667,-87.6,22.79,97,97,1.37,HN,1703025556
33,manokwari,-0.8667,134.0833,27.16,75,100,1.68,ID,1703025556
34,sarichioi,44.95,28.85,3.12,87,0,1.03,RO,1703025556
35,el granada,37.5027,-122.4694,18.9,82,75,6.69,US,1703025556
36,nova sintra,14.8667,-24.7167,21.15,71,100,5.0,CV,1703025556
37,bikenibeu village,1.3673,173.1241,29.98,79,75,7.2,KI,1703025556
38,college,64.8569,-147.8028,-12.28,82,75,3.6,US,1703025556
39,adamstown,-25.066,-130.1015,23.03,78,99,7.21,PN,1703025556
40,walvis bay,-22.9575,14.5053,16.53,88,0,3.6,NA,1703025556
41,vadso,70.0744,29.7487,-5.91,86,99,4.12,NO,1703025556
42,greytown,-29.0642,30.5928,15.53,98,89,0.46,ZA,1703025556
43,st. john's,47.5649,-52.7093,13.15,89,75,9.26,CA,1703025556
44,jamestown,42.097,-79.2353,-0.23,86,100,3.6,US,1703025384
45,hawaiian paradise park,19.5933,-154.9731,23.91,91,100,3.09,US,1703025557
46,xinglongshan,43.9561,125.4661,-28.14,69,0,1.0,CN,1703025557
47,wailua homesteads,22.0669,-159.378,25.24,81,75,10.29,US,1703025557
48,macapa,0.0389,-51.0664,30.99,70,20,5.66,BR,1703025557
49,palmer,42.1584,-72.3287,2.75,57,75,6.69,US,1703025557
50,broken hill,-31.95,141.4333,16.73,27,0,10.24,AU,1703025557
51,iqaluit,63.7506,-68.5145,-20.15,71,75,5.66,CA,1703025557
52,chonchi,-42.6128,-73.8092,23.56,62,1,0.53,CL,1703025557
53,qaqortoq,60.7167,-46.0333,2.79,100,100,4.02,GL,1703025557
54,udachny,66.4167,112.4,-25.96,86,98,2.12,RU,1703025557
55,saint-philippe,-21.3585,55.7679,24.77,82,100,2.43,RE,1703025557
56,akureyri,65.6835,-18.0878,-5.04,63,0,2.57,IS,1703025557
57,blackmans bay,-43.0167,147.3167,15.29,72,16,0.89,AU,1703025557
58,cochin,9.9399,76.2602,24.99,85,81,2.78,IN,1703025557
59,jinchang,38.4953,102.1739,-13.19,80,1,0.63,CN,1703025558
60,kodiak,57.79,-152.4072,0.73,86,100,5.14,US,1703025558
61,bac lieu,9.285,105.7244,24.87,88,81,2.66,VN,1703025558
62,victorica,-36.2151,-65.4359,12.41,63,100,6.28,AR,1703025558
63,kirishi,59.4471,32.0205,0.02,83,41,5.77,RU,1703025558
64,west island,-12.1568,96.8225,25.99,78,75,3.6,CC,1703025558
65,nouna,12.7333,-3.8667,20.64,15,59,4.2,BF,1703025558
66,urzhar,47.093,81.6294,-5.92,97,100,1.03,KZ,1703025558
67,dogondoutchi,13.6393,4.0287,21.73,19,46,5.11,NE,1703025558
68,stanley,54.868,-1.6985,5.99,83,20,8.75,GB,1703025558
69,whitehorse,60.7161,-135.0538,-11.61,84,75,8.75,CA,1703025361
70,port lincoln,-34.7333,135.8667,15.49,59,2,7.86,AU,1703025558
71,roanoke rapids,36.4615,-77.6542,4.97,60,0,1.54,US,1703025558
72,kayangel,8.0823,134.7173,28.46,78,13,6.98,PW,1703025558
73,taltal,-25.4,-70.4833,18.96,74,22,2.74,CL,1703025558
74,ushuaia,-54.8,-68.3,13.81,67,75,7.72,AR,1703025558
75,bengkulu,-3.8004,102.2655,23.49,90,98,1.42,ID,1703025559
76,maragogi,-9.0122,-35.2225,24.36,89,100,4.18,BR,1703025559
77,puerto deseado,-47.7503,-65.8938,19.48,35,4,7.34,AR,1703025559
78,vernon,50.2581,-119.2691,5.34,90,100,0.0,CA,1703025366
79,collie,-33.3667,116.15,16.6,62,100,5.21,AU,1703025559
80,itaberaba,-12.5275,-40.3069,23.92,77,34,1.2,BR,1703025381
81,puerto baquerizo moreno,-0.9,-89.6,27.55,83,40,5.66,EC,1703025559
82,georgetown,5.4112,100.3354,25.96,87,20,2.57,MY,1703025559
83,talnakh,69.4865,88.3972,-13.77,66,100,12.74,RU,1703025559
84,yacuiba,-22.038,-63.6797,19.29,88,99,2.61,BO,1703025559
85,lensk,60.7253,114.9278,-28.07,92,96,4.65,RU,1703025559
86,magadan,59.5667,150.8,-24.73,87,59,4.66,RU,1703025559
87,nema,57.5067,50.5011,-0.19,97,100,7.92,RU,1703025559
88,mount isa,-20.7333,139.5,30.87,51,5,2.57,AU,1703025559
89,avarua,-21.2078,-159.775,26.03,73,100,4.63,CK,1703025559
90,la passe,45.5549,-0.8967,11.66,96,100,5.92,FR,1703025559
91,nuuk,64.1835,-51.7216,-3.66,93,100,8.23,GL,1703025560
92,ola,59.5833,151.2833,-25.54,89,28,4.58,RU,1703025560
93,ilulissat,69.2167,-51.1,-26.54,76,1,3.01,GL,1703025560
94,olonkinbyen,70.9221,-8.7187,-4.98,65,100,8.61,SJ,1703025560
95,kidal,18.4411,1.4078,14.24,18,4,7.11,ML,1703025560
96,ribeira grande,38.5167,-28.7,16.54,80,100,7.15,PT,1703025560
97,brooks,50.5834,-111.8851,0.99,81,100,2.57,CA,1703025560
98,san rafael,-34.6177,-68.3301,10.62,79,100,3.8,AR,1703025461
99,pionerskiy,54.9508,20.2275,6.91,90,100,6.8,RU,1703025560
100,kadugli,11.0167,29.7167,23.9,27,36,3.46,SD,1703025560
101,amos,48.5669,-78.1162,-8.25,65,85,4.05,CA,1703025284
102,jha-jha,24.7667,86.3667,13.25,52,99,2.58,IN,1703025560
103,tofol,5.3248,163.0078,27.8,78,100,8.76,FM,1703025560
104,muana,-1.5283,-49.2167,27.64,74,90,3.24,BR,1703025560
105,cova figueira,14.8905,-24.2934,20.65,73,100,6.78,CV,1703025560
106,puerto ayora,-0.7393,-90.3518,28.98,92,98,2.24,EC,1703025560
107,saldanha,-33.0117,17.9442,15.03,84,0,8.26,ZA,1703025560
108,leava,-14.3,-178.1667,28.55,79,75,4.74,WF,1703025561
109,tura,25.5198,90.2201,13.89,83,56,1.55,IN,1703025561
110,harper,4.375,-7.7169,27.05,83,77,3.05,LR,1703025561
111,new ulm,44.3125,-94.4605,3.21,71,0,2.57,US,1703025561
112,puerto real,36.5282,-6.1901,9.03,87,0,0.51,ES,1703025548
113,waseca,44.0777,-93.5074,2.94,69,0,3.6,US,1703025561
114,polyarnyy,69.1989,33.4478,-11.0,92,100,0.78,RU,1703025561
115,constantia,44.1833,28.65,3.17,75,0,4.22,RO,1703025561
116,margaret river,-33.95,115.0667,17.8,59,90,5.86,AU,1703025561
117,ak-suu,42.4995,78.527,-3.7,71,97,2.9,KG,1703025561
118,priozersk,61.0393,30.1291,0.53,47,10,7.68,RU,1703025561
119,enewetak,11.3474,162.3373,27.17,75,100,10.8,MH,1703025561
120,paradip garh,20.3167,86.6167,16.83,46,64,4.45,IN,1703025561
121,tabas,33.5959,56.9244,8.59,48,14,1.15,IR,1703025561
122,thompson,55.7435,-97.8558,-19.91,77,20,2.06,CA,1703025561
123,fort bragg,35.139,-79.006,6.91,43,0,2.57,US,1703025364
124,klyuchi,52.2667,79.1667,-8.73,93,97,3.68,RU,1703025562
125,shirochanka,46.6497,38.3978,5.06,94,79,4.24,RU,1703025562
126,ust-nera,64.5667,143.2,-37.89,100,99,1.79,RU,1703025562
127,pandan,14.0453,124.1694,26.33,86,38,4.78,PH,1703025562
128,belokurikha,51.9959,84.9896,-8.59,76,100,2.04,RU,1703025562
129,ialibu,-6.2821,143.9935,16.29,90,100,0.36,PG,1703025562
130,remire-montjoly,4.9167,-52.2667,28.02,83,75,2.06,GF,1703025562
131,bogo,11.0517,124.0055,26.04,87,74,1.93,PH,1703025562
132,richards bay,-28.783,32.0377,21.91,82,98,1.7,ZA,1703025562
133,carutapera,-1.195,-46.02,26.4,82,87,2.98,BR,1703025562
134,malango,-2.9627,119.9001,21.42,96,100,0.39,ID,1703025562
135,shingu,33.7333,135.9833,5.92,86,100,3.13,JP,1703025559
136,atafu village,-8.5421,-172.5159,28.99,74,88,3.92,TK,1703025562
137,jayapura,-2.5333,140.7,25.66,92,100,2.08,ID,1703025562
138,anadyr,64.75,177.4833,-24.72,75,0,5.0,RU,1703025563
139,cooper's town,26.8667,-77.5167,20.94,62,0,10.61,BS,1703025563
140,hithadhoo,-0.6,73.0833,27.92,78,87,3.23,MV,1703025563
141,novo aripuana,-5.1206,-60.3797,25.49,90,90,2.28,BR,1703025563
142,nar'yan-mar,67.6713,53.087,-12.72,97,86,4.47,RU,1703025563
143,howrah,22.5892,88.3103,15.0,82,19,2.06,IN,1703025563
144,puerto montt,-41.4698,-72.9447,23.46,40,0,5.14,CL,1703025563
145,agde,43.3108,3.4758,8.82,76,0,5.14,FR,1703025563
146,labytnangi,66.6572,66.4183,-17.17,99,100,1.7,RU,1703025563
147,ejura,7.3856,-1.3562,24.52,19,1,1.35,GH,1703025563
148,kristinestad,62.2743,21.376,1.72,71,100,12.31,FI,1703025563
149,argo,37.6333,22.7333,10.99,60,0,0.94,GR,1703025563
150,san mariano,7.5,126.0,23.01,91,52,1.12,PH,1703025563
151,haiku-pauwela,20.9219,-156.3051,25.7,75,40,9.26,US,1703025563
152,alesund,62.4723,6.1549,3.08,64,20,7.72,NO,1703025564
153,arvayheer,46.2639,102.775,-27.13,75,1,3.09,MN,1703025564
154,kindu,-2.95,25.95,21.17,98,100,0.76,CD,1703025564
155,codrington,-38.2667,141.9667,14.38,55,67,7.28,AU,1703025564
156,utrik,11.2278,169.8474,27.07,76,79,10.64,MH,1703025564
157,porto murtinho,-21.6989,-57.8825,30.06,59,100,2.34,BR,1703025564
158,port blair,11.6667,92.75,28.02,78,20,3.09,IN,1703025564
159,gadzhiyevo,69.2551,33.3362,-11.69,95,100,0.79,RU,1703025564
160,punta arenas,-53.15,-70.9167,16.06,59,75,6.69,CL,1703025564
161,kununurra,-15.7667,128.7333,28.99,94,92,3.09,AU,1703025564
162,galveston,29.3669,-94.9669,17.06,74,0,5.66,US,1703025564
163,kerikeri,-35.2268,173.9474,24.95,74,98,0.89,NZ,1703025564
164,lashio,22.9333,97.75,10.73,97,12,0.77,MM,1703025564
165,dryden,49.7833,-92.7503,-2.84,63,100,5.14,CA,1703025564
166,laracha,43.2537,-8.5854,11.75,94,100,2.06,ES,1703025564
167,houlton,46.1262,-67.8403,4.29,93,0,2.06,US,1703025564
168,tolanaro,-25.0319,46.9987,25.04,83,40,4.12,MG,1703025565
169,sao jose da coroa grande,-8.8978,-35.1478,24.87,88,100,4.04,BR,1703025565
170,macau,22.2006,113.5461,11.89,82,40,10.29,MO,1703025565
171,khandyga,62.6667,135.6,-46.72,100,99,0.71,RU,1703025565
172,daru,-9.0763,143.2092,24.91,94,100,1.88,PG,1703025565
173,ancud,-41.8697,-73.8203,17.32,64,1,1.66,CL,1703025565
174,gonabad,34.3529,58.6837,3.98,67,48,1.49,IR,1703025565
175,rio gallegos,-51.6226,-69.2181,22.03,37,20,9.26,AR,1703025565
176,taoudenni,22.6783,-3.9836,12.81,42,19,5.49,ML,1703025565
177,bol,13.4586,14.7147,23.98,47,9,5.26,TD,1703025565
178,berdigestyakh,62.0989,126.6992,-26.58,99,100,0.97,RU,1703025565
179,aoulef,26.9667,1.0833,10.52,54,0,3.93,DZ,1703025565
180,island harbour,50.724,-1.2758,6.75,90,23,2.24,GB,1703025565
181,arraial do cabo,-22.9661,-42.0278,24.98,73,20,4.12,BR,1703025565
182,musoma,-1.5,33.8,20.05,84,83,2.83,TZ,1703025565
183,kuala tungkal,-0.8167,103.4667,24.36,93,98,2.47,ID,1703025566
184,mar del plata,-38.0023,-57.5575,15.53,70,75,5.66,AR,1703025566
185,gamba,-2.65,10.0,25.75,88,100,1.53,GA,1703025566
186,asau,46.4333,26.4,-1.49,69,6,3.64,RO,1703025566
187,belzyce,51.1741,22.2803,5.94,64,100,6.09,PL,1703025566
188,mili,6.0815,171.735,27.23,84,100,13.76,MH,1703025566
189,tremp,42.167,0.8949,7.04,66,58,1.53,ES,1703025566
190,flying fish cove,-10.4217,105.6791,20.82,94,28,0.0,CX,1703025566
191,arendal,58.4615,8.7725,2.89,78,67,6.19,NO,1703025566
192,shar'ya,58.3686,45.5144,0.55,98,100,5.36,RU,1703025566
193,qarqaraly,49.4058,75.4742,-10.2,91,99,3.44,KZ,1703025566
194,ust-tsilma,65.441,52.1498,-15.77,99,89,1.79,RU,1703025566
195,upper hutt,-41.1383,175.0502,19.68,68,10,5.04,NZ,1703025566
196,mitsamiouli,-11.3847,43.2844,28.21,80,100,4.54,KM,1703025566
197,hollidaysburg,40.4273,-78.3889,0.29,70,100,5.14,US,1703025420
198,mil'kovo,55.6078,37.7956,3.73,96,100,6.14,RU,1703025567
199,zeya,53.75,127.2667,-30.29,91,59,1.31,RU,1703025567
200,markovo,57.3206,107.0881,-37.06,100,27,0.88,RU,1703025567
201,isafjordur,66.0755,-23.124,-7.22,77,100,4.08,IS,1703025567
202,kupang,-10.1667,123.5833,26.32,94,20,0.0,ID,1703025567
203,bonthe,7.5264,-12.505,25.29,64,1,1.46,SL,1703025567
204,santa elena de uairen,4.6167,-61.1333,24.46,66,100,1.8,VE,1703025567
205,hamilton,39.1834,-84.5333,2.09,60,0,3.6,US,1703025480
206,new norfolk,-42.7826,147.0587,15.95,45,7,0.94,AU,1703025567
207,aix-les-bains,45.6834,5.9224,5.63,88,0,2.68,FR,1703025567
208,lerwick,60.1545,-1.1494,3.0,55,83,12.85,GB,1703025567
209,vila do maio,15.1333,-23.2167,24.44,68,100,8.55,CV,1703025567
210,papatowai,-46.5619,169.4708,15.37,96,100,1.55,NZ,1703025567
211,mwinilunga,-11.7358,24.4293,17.98,97,94,0.57,ZM,1703025567
212,manavalakurichi,8.1333,77.3,24.82,81,43,5.0,IN,1703025567
213,taguatinga,-12.3857,-46.5711,25.75,62,98,1.01,BR,1703025568
214,sibolga,1.7427,98.7792,24.51,92,97,1.39,ID,1703025568
215,novaya igirma,57.1334,103.9112,-35.44,99,11,0.9,RU,1703025568
216,ad dabbah,18.05,30.95,21.13,33,0,5.49,SD,1703025568
217,princeville,45.7668,-61.2985,13.63,96,100,7.72,CA,1703025568
218,buique,-8.6231,-37.1558,21.15,82,97,3.28,BR,1703025552
219,turkestan,43.3333,68.25,-5.58,93,7,2.2,KZ,1703025568
220,kirakira,-10.4544,161.9205,28.68,72,96,2.0,SB,1703025568
221,cide,41.8921,33.0044,9.68,70,11,1.95,TR,1703025568
222,chibougamau,49.9168,-74.3659,-11.21,85,100,1.54,CA,1703025398
223,namibe,-15.1961,12.1522,23.56,71,53,1.74,AO,1703025568
224,quelimane,-17.8786,36.8883,26.08,82,100,2.49,MZ,1703025568
225,pathein,16.7833,94.7333,20.09,76,30,2.12,MM,1703025568
226,touros,-5.1989,-35.4608,26.24,84,98,3.82,BR,1703025568
227,guixi,28.2886,117.2133,2.86,95,100,1.1,CN,1703025568
228,porto novo,6.4965,2.6036,28.9,81,38,3.56,BJ,1703025569
229,undurkhaan,47.3194,110.6556,-33.69,91,26,1.92,MN,1703025569
230,bodo,67.28,14.405,2.1,75,40,6.69,NO,1703025569
231,negombo,7.2083,79.8358,25.03,100,40,2.06,LK,1703025569
232,tamanrasset,22.785,5.5228,6.95,31,0,2.06,DZ,1703025569
233,port elizabeth,-33.918,25.5701,20.16,95,100,6.69,ZA,1703025569
234,hard bargain,26.3167,-77.5667,21.65,61,3,10.28,BS,1703025569
235,yulinshi,38.2906,109.7494,-19.58,82,10,1.53,CN,1703025569
236,hammerfest,70.6634,23.6821,-5.75,86,0,0.0,NO,1703025569
237,adrar,20.5022,-10.0711,12.8,23,100,6.38,MR,1703025569
238,tezu,27.9167,96.1667,13.93,46,4,1.88,IN,1703025569
239,roxas,11.5853,122.7511,24.52,90,94,3.44,PH,1703025569
240,jiuquan,39.7432,98.5174,-15.41,88,16,0.82,CN,1703025569
241,uturoa,-16.7333,-151.4333,26.8,82,100,4.94,PF,1703025569
242,fale old settlement,-9.3852,-171.2468,28.91,75,79,2.08,TK,1703025569
243,melo,-32.3667,-54.1833,17.66,75,99,6.71,UY,1703025570
244,viedma,-40.8135,-62.9967,15.12,43,80,6.85,AR,1703025570
245,elliot,-31.3333,27.85,13.08,84,5,0.74,ZA,1703025570
246,cascais,38.6979,-9.4215,12.51,83,43,7.6,PT,1703025570
247,mount pearl,47.5166,-52.7813,12.69,89,75,9.26,CA,1703025570
248,vinkovci,45.2883,18.8047,-0.03,100,0,3.6,HR,1703025570
249,altai,46.3722,96.2583,-24.54,42,4,0.77,MN,1703025570
250,adre,13.4667,22.2,20.27,27,100,3.63,TD,1703025570
251,kingston,17.997,-76.7936,26.53,78,75,6.17,JM,1703025570
252,tottori,35.5,134.2333,4.04,81,75,2.06,JP,1703025570
253,horta,38.5333,-28.6333,16.12,80,100,7.15,PT,1703025570
254,sumbawa besar,-8.5,117.4333,24.25,77,24,1.58,ID,1703025570
255,aykhal,66.0,111.5,-22.7,88,99,3.0,RU,1703025570
256,ta`u,-14.2336,-169.5144,27.85,80,95,4.61,AS,1703025570
257,kargopol',61.5071,38.9456,0.26,85,100,6.57,RU,1703025571
258,golfito,8.639,-83.166,25.84,90,32,0.94,CR,1703025571
259,mao,39.8885,4.2658,10.31,93,0,3.09,ES,1703025571
260,dudinka,69.4058,86.1778,-13.54,76,100,13.24,RU,1703025571
261,iskateley,67.6803,53.1512,-12.77,97,87,4.47,RU,1703025571
262,santa cruz,-17.8,-63.1667,26.7,78,75,3.6,BO,1703025570
263,hadibu,12.65,54.0333,24.64,80,13,5.35,YE,1703025571
264,mount pleasant,32.7941,-79.8626,7.21,48,0,2.06,US,1703025287
265,hachinohe,40.5,141.5,-1.08,91,100,4.17,JP,1703025571
266,nizhniy kuranakh,58.8353,125.4869,-25.23,98,100,2.85,RU,1703025571
267,letterkenny,54.95,-7.7333,8.94,83,100,8.11,IE,1703025571
268,klyavlino,54.2649,52.0267,-2.28,94,100,10.64,RU,1703025571
269,afaahiti,-17.75,-149.2833,26.93,89,100,4.21,PF,1703025571
270,amga,60.8953,131.9608,-45.34,100,98,0.13,RU,1703025571
271,aasiaat,68.7098,-52.8699,-20.04,89,38,2.67,GL,1703025571
272,saint-pierre,-21.3393,55.4781,25.87,83,0,3.09,RE,1703025572
273,kruisfontein,-34.0033,24.7314,18.13,92,50,1.83,ZA,1703025572
274,vilyuchinsk,52.9306,158.4028,-15.85,81,100,3.83,RU,1703025572
275,al kawa,13.7463,32.4996,24.92,31,1,4.02,SD,1703025572
276,atherton,53.5237,-2.4935,8.49,85,18,1.79,GB,1703025572
277,klaksvik,62.2266,-6.589,2.51,52,73,16.28,FO,1703025572
278,san antonio de pale,-1.4014,5.6325,27.2,80,84,3.1,GQ,1703025572
279,keetmanshoop,-26.5833,18.1333,27.51,19,0,5.14,NA,1703025572
280,zaoyang,32.1272,112.7542,-0.82,72,98,1.76,CN,1703025572
281,rancho palos verdes,33.7445,-118.387,19.64,81,75,3.09,US,1703025519
282,kamloops,50.6665,-120.3192,5.87,83,75,7.72,CA,1703025500
283,saint-leu,-21.15,55.2833,25.53,92,100,1.08,RE,1703025572
284,salekhard,66.53,66.6019,-15.53,98,99,2.95,RU,1703025573
285,honefoss,60.168,10.2565,-4.16,97,90,1.52,NO,1703025573
286,aromashevo,56.8602,68.6375,-16.11,96,22,3.57,RU,1703025573
287,thinadhoo,0.5333,72.9333,28.25,76,67,2.74,MV,1703025573
288,golyshmanovo,56.3979,68.3728,-17.0,97,32,3.21,RU,1703025573
289,acapulco de juarez,16.8634,-99.8901,28.9,70,40,4.63,MX,1703025429
290,betio village,1.358,172.9211,30.02,84,100,10.4,KI,1703025573
291,kassala,15.451,36.4,25.65,41,0,3.23,SD,1703025573
292,dakhla,23.6848,-15.958,17.01,42,3,6.87,EH,1703025573
293,escarcega,18.6089,-90.7454,21.82,55,39,1.77,MX,1703025573
294,sterling,39.0062,-77.4286,3.0,56,20,4.63,US,1703025493
295,dan khun thot,15.2085,101.7714,19.65,82,87,3.4,TH,1703025574
296,byron bay,-28.65,153.6167,27.06,57,66,3.26,AU,1703025574
297,hasaki,35.7333,140.8333,4.22,62,100,3.15,JP,1703025574
298,aldan,58.6031,125.3894,-27.58,98,100,1.63,RU,1703025574
299,caleta de carquin,-11.0925,-77.6267,22.02,84,64,5.07,PE,1703025574
300,svetlyy yar,48.4748,44.781,2.78,95,100,5.63,RU,1703025574
301,troitsko-pechorsk,62.7084,56.1964,-7.91,93,100,4.66,RU,1703025574
302,salalah,17.0151,54.0924,24.05,60,0,1.54,OM,1703025574
303,primorskiy,43.0983,131.5875,-15.98,56,5,6.46,RU,1703025574
304,soio,-6.1349,12.3689,26.63,86,100,3.0,AO,1703025574
305,cloquet,46.7216,-92.4594,-0.11,68,0,2.06,US,1703025514
306,buala,-8.145,159.5921,28.6,66,67,1.04,SB,1703025574
307,naze,28.3667,129.4833,13.51,79,100,10.47,JP,1703025574
308,kapuskasing,49.4169,-82.4331,-5.0,86,100,6.17,CA,1703025422
309,pisco,-13.7,-76.2167,23.03,78,0,8.75,PE,1703025575
310,kurmuk,10.55,34.2833,24.02,29,34,1.46,SD,1703025575
311,kolondieba,11.0882,-6.8926,20.4,15,57,2.71,ML,1703025575
312,praia,14.9215,-23.5087,24.3,64,20,7.72,CV,1703025575
313,bonham,33.5773,-96.1783,13.33,40,0,5.66,US,1703025575
314,puerto santander,8.3636,-72.4063,29.67,81,70,0.52,CO,1703025575
315,tidjikja,18.5564,-11.4271,14.94,19,98,9.07,MR,1703025575
316,narvik,68.4384,17.4272,1.32,92,100,2.97,NO,1703025575
317,kavaratti,10.5669,72.642,28.0,73,100,2.94,IN,1703025575
318,taulaga,-11.0553,-171.0883,28.65,80,96,4.39,AS,1703025575
319,luderitz,-26.6481,15.1594,16.99,72,0,6.69,NA,1703025575
320,serdar,38.9764,56.2757,3.06,77,0,3.41,TM,1703025575
321,tobarra,38.5921,-1.6919,-0.68,40,0,5.22,ES,1703025575
322,abbeville,50.1,1.8333,7.98,82,100,5.63,FR,1703025575
323,carauari,-4.8828,-66.8958,26.24,87,83,1.35,BR,1703025576
324,codajas,-3.8367,-62.0569,27.0,81,82,0.95,BR,1703025576
325,vila velha,-20.3297,-40.2925,25.97,78,20,4.12,BR,1703025576
326,nanping,26.645,118.1736,5.58,91,100,1.49,CN,1703025576
327,phan rang-thap cham,11.5667,108.9833,23.67,74,85,3.52,VN,1703025576
328,copala,16.65,-98.9833,27.16,73,3,3.32,MX,1703025576
329,bikaner,28.0167,73.3,12.79,32,46,0.75,IN,1703025576
330,kill devil hills,36.0307,-75.676,6.1,51,40,4.12,US,1703025576
331,midvagur,62.0511,-7.1939,2.46,64,40,10.29,FO,1703025576
332,padangsidempuan,1.3667,99.2667,21.83,98,94,1.18,ID,1703025576
333,sitia,35.2,26.0986,13.88,72,20,1.81,GR,1703025576
334,jidong,45.2167,131.0833,-30.59,96,48,2.08,CN,1703025576
335,hollymead,38.1171,-78.4417,3.1,58,3,1.82,US,1703025576
336,fort st. john,56.2499,-120.8529,-6.06,86,100,5.14,CA,1703025576
337,calca,-13.3333,-71.95,18.64,82,100,1.9,PE,1703025576
338,siocon,7.7061,122.1353,26.56,85,99,2.15,PH,1703025577
339,al mawsil al jadidah,36.3346,43.0978,11.71,55,100,1.25,IQ,1703025577
340,nogliki,51.8333,143.1667,-29.82,98,76,2.82,RU,1703025577
341,beloyarskiy,63.7119,66.6722,-15.96,97,97,2.18,RU,1703025577
342,guanica,17.9716,-66.908,26.7,58,75,3.59,PR,1703025577
343,san miguel cuyutlan,20.4167,-103.4,23.62,27,0,0.0,MX,1703025577
344,freetown,8.484,-13.2299,26.84,78,40,3.09,SL,1703025390
345,dengzhou,37.8086,120.7508,-5.77,70,100,8.65,CN,1703025577
346,port alfred,-33.5906,26.891,18.43,98,49,0.89,ZA,1703025577
347,alice springs,-23.7,133.8833,23.75,23,0,4.12,AU,1703025386
348,tazacorte,28.629,-17.9293,19.54,60,20,3.6,ES,1703025577
349,broome,42.2506,-75.833,-2.28,82,100,4.63,US,1703025577
350,ciudad lazaro cardenas,17.9583,-102.2,27.46,72,6,3.05,MX,1703025577
351,sinop,41.7711,34.8709,4.84,75,33,3.56,TR,1703025577
352,hobyo,5.3505,48.5268,25.88,82,99,9.59,SO,1703025578
353,biloela,-24.4167,150.5,28.0,52,44,1.02,AU,1703025377
354,lebu,-37.6167,-73.65,14.66,78,50,1.78,CL,1703025578
355,reggane,26.7158,0.1714,10.99,50,0,4.0,DZ,1703025578
356,swift current,50.2834,-107.8014,1.45,60,100,7.72,CA,1703025465
357,mogocha,53.7333,119.7667,-26.01,87,100,1.57,RU,1703025578
358,mont-dore,-22.2833,166.5833,28.99,99,22,4.16,NC,1703025578
359,hoylake,53.3905,-3.1807,8.51,86,35,6.26,GB,1703025578
360,weno,7.4515,151.8468,28.97,74,100,3.6,FM,1703025578
361,doka,13.5167,35.7667,24.95,27,2,3.1,SD,1703025578
362,le vauclin,14.5452,-60.8388,26.03,69,0,3.09,MQ,1703025578
363,kasongo-lunda,-6.4667,16.8167,21.56,86,100,0.47,CD,1703025578
364,kievka,50.2619,71.5514,-5.58,95,100,7.29,KZ,1703025578
365,dunedin,-45.8742,170.5036,23.37,43,98,1.49,NZ,1703025492
366,mahalapye,-23.1041,26.8142,24.16,58,71,6.79,BW,1703025578
367,kropp,54.4167,9.5167,4.9,95,92,3.6,DE,1703025578
368,verkhnevilyuysk,63.4453,120.3167,-24.88,93,98,2.93,RU,1703025579
369,jinghong,21.991,100.7341,13.84,90,87,1.19,CN,1703025579
370,ballina,-28.8667,153.5667,27.1,57,75,3.42,AU,1703025579
371,port saint john's,-31.6229,29.5448,21.27,85,97,5.12,ZA,1703025579
372,taber,49.8167,-112.1518,5.92,68,91,1.54,CA,1703025579
373,yaren,-0.5472,166.916,28.32,80,96,4.59,NR,1703025579
374,holualoa,19.6228,-155.9522,25.43,73,75,4.12,US,1703025579
375,igarka,67.4667,86.5833,-14.79,74,100,12.59,RU,1703025579
376,patacamaya,-17.2333,-67.9167,14.11,57,94,3.11,BO,1703025579
377,arkhara,49.4212,130.0842,-31.83,100,100,1.79,RU,1703025579
378,petropavlovsk-kamchatsky,53.0452,158.6483,-16.67,72,0,4.0,RU,1703025579
379,sabang,5.8933,95.3214,28.0,75,19,6.65,ID,1703025579
380,katsuura,35.1333,140.3,10.17,70,99,3.77,JP,1703025579
381,luwuk,-0.9516,122.7875,27.09,85,73,0.22,ID,1703025579
382,tugulym,57.0591,64.6425,-6.96,96,23,2.75,RU,1703025579
383,sanya,18.2431,109.505,22.09,73,75,2.0,CN,1703025579
384,mont-laurier,46.5501,-75.4993,-7.21,88,41,1.39,CA,1703025580
385,olyokminsk,60.3736,120.4264,-23.49,87,100,3.82,RU,1703025580
386,zaozersk,69.4005,32.4476,-9.82,98,100,2.67,RU,1703025580
387,murashi,59.3999,48.9615,-0.68,97,100,5.82,RU,1703025318
388,brookings,44.3114,-96.7984,3.43,66,0,2.06,US,1703025580
389,oppdal,62.5943,9.6912,-10.53,83,94,3.97,NO,1703025580
390,qarazhal,48.0078,70.7903,-4.88,93,100,9.27,KZ,1703025580
391,santa terezinha,-29.9002,-50.0904,23.03,94,95,5.14,BR,1703025580
392,saint-joseph,-21.3667,55.6167,25.26,83,100,0.88,RE,1703025580
393,badger,64.8,-147.5333,-12.33,83,75,3.6,US,1703025282
394,bardai,11.65,7.2333,20.41,28,4,3.56,NG,1703025580
395,wakkanai,45.4094,141.6739,-3.28,79,100,4.92,JP,1703025580
396,gabu,12.2833,-14.2167,23.0,15,73,3.61,GW,1703025580
397,barcelos,41.5388,-8.6151,9.08,77,100,1.69,PT,1703025580
398,kikwit,-5.041,18.8162,22.57,87,100,0.28,CD,1703025580
399,ebaye,8.7748,167.7392,29.01,70,40,8.23,MH,1703025580
400,machali,-34.1833,-70.6667,21.6,46,20,5.14,CL,1703025580
401,geneina,13.45,22.45,20.27,27,100,4.14,SD,1703025580
402,san patricio,28.017,-97.5169,21.4,64,100,4.22,US,1703025581
403,lagoa,39.05,-27.9833,16.09,82,100,10.63,PT,1703025581
404,jalai nur,49.45,117.7,-33.92,95,23,1.73,CN,1703025581
405,sasso marconi,44.3995,11.2495,8.93,77,0,1.03,IT,1703025581
406,saudarkrokur,65.7461,-19.6394,-7.16,82,96,4.75,IS,1703025581
407,norilsk,69.3535,88.2027,-13.65,64,100,11.87,RU,1703025293
408,alaghsas,17.0187,8.0168,20.0,16,37,3.53,NE,1703025581
409,al jahra',29.3375,47.6581,18.68,70,1,1.71,KW,1703025581
410,essaouira,31.5125,-9.77,13.72,67,40,1.54,MA,1703025581
411,okakarara,-20.5833,17.4333,24.57,45,53,0.65,NA,1703025581
412,praia da vitoria,38.7333,-27.0667,16.14,94,40,6.48,PT,1703025581
413,hollabrunn,48.55,16.0833,6.91,70,56,1.34,AT,1703025581
414,waimea,20.0231,-155.6717,21.37,92,99,2.68,US,1703025582
415,villa gesell,-37.2639,-56.973,16.14,62,99,6.39,AR,1703025582
416,champerico,14.3,-91.9167,31.3,68,8,2.62,GT,1703025582
417,kirovskoye,42.6198,71.5891,8.27,76,35,1.93,KG,1703025582
418,awjilah,29.1081,21.2869,13.23,62,100,3.36,LY,1703025582
419,balykshi,47.0667,51.8667,0.0,100,100,3.0,KZ,1703025582
420,kon tum,14.35,108.0,18.54,89,70,1.33,VN,1703025582
421,celestun,20.8667,-90.4,23.0,55,77,5.73,MX,1703025582
422,ziniare,12.5822,-1.2983,23.02,17,1,4.56,BF,1703025582
423,taroa,8.7058,171.2275,27.25,80,100,11.87,MH,1703025582
424,port hedland,-20.3167,118.5667,25.03,83,3,4.63,AU,1703025582
425,yabucoa,18.0505,-65.8793,26.67,82,74,2.96,PR,1703025582
426,maintirano,-18.0667,44.0167,27.67,73,99,1.26,MG,1703025582
427,chiredzi,-21.05,31.6667,23.02,85,100,3.42,ZW,1703025582
428,santo antonio do ica,-3.1022,-67.9397,25.68,91,96,1.11,BR,1703025582
429,nagqu,31.5,92.0,-28.11,89,5,1.18,CN,1703025583
430,egilsstadir,65.2653,-14.3948,-4.05,50,0,5.14,IS,1703025583
431,sarh,9.1429,18.3923,20.95,68,0,0.0,TD,1703025583
432,loango,-4.6719,11.8312,25.89,89,100,1.51,CG,1703025583
433,vila franca do campo,37.7167,-25.4333,18.27,99,100,3.83,PT,1703025583
434,kailashahar,24.3333,92.0167,12.74,95,13,0.55,IN,1703025583
435,mana,5.6592,-53.7767,25.89,91,4,3.88,GF,1703025583
436,la rinconada,37.4873,-5.9826,9.63,81,0,0.0,ES,1703025491
437,santa ana,33.7456,-117.8678,20.44,65,75,2.06,US,1703025301
438,camilla,31.2313,-84.2105,9.03,50,8,2.74,US,1703025546
439,lompoc,34.6391,-120.4579,19.32,71,100,3.6,US,1703025583
440,san rafael del sur,11.8485,-86.4384,29.54,54,4,6.15,NI,1703025583
441,savanna-la-mar,18.219,-78.1332,25.97,67,3,5.63,JM,1703025583
442,rio grande,-32.035,-52.0986,21.06,88,100,8.15,BR,1703025583
443,totness,5.8833,-56.3167,26.45,85,21,4.87,SR,1703025583
444,angaur state,6.906,134.13,28.47,76,15,5.26,PW,1703025583
445,novodvinsk,64.4165,40.8122,-1.14,97,100,3.55,RU,1703025583
446,kendari,-3.945,122.4989,25.71,88,88,1.99,ID,1703025583
447,vorkuta,67.5,64.0,-15.85,91,99,3.52,RU,1703025584
448,cidreira,-30.1811,-50.2056,23.01,92,99,6.19,BR,1703025584
449,sao joao dos inhamuns,-6.0,-40.2833,24.03,82,89,6.23,BR,1703025584
450,grandview,38.8858,-94.533,8.42,46,0,7.72,US,1703025584
451,anloga,5.7947,0.8973,28.03,80,10,4.67,GH,1703025584
452,novyy urengoy,66.0833,76.6333,-12.9,93,100,7.93,RU,1703025584
453,urangan,-25.3,152.9,29.0,72,8,2.68,AU,1703025286
454,serov,59.6033,60.5787,-10.14,92,24,3.71,RU,1703025584
455,nouadhibou,20.931,-17.0347,18.99,32,72,7.72,MR,1703025584
456,port moresby,-9.4431,147.1797,27.68,74,40,2.06,PG,1703025584
457,ibirama,-27.0569,-49.5178,22.95,90,47,2.01,BR,1703025584
458,santa maria chiquimula,15.0303,-91.3292,22.0,43,9,2.31,GT,1703025584
459,kota belud,6.351,116.4305,25.17,89,79,2.18,MY,1703025473
460,aripuana,-9.1667,-60.6333,25.14,85,88,0.98,BR,1703025584
461,rongelap,11.1635,166.8941,27.29,78,100,9.25,MH,1703025584
462,mahavelona,-17.6848,49.5087,24.55,92,81,1.75,MG,1703025584
463,ghardaia,32.4909,3.6735,10.64,66,0,5.14,DZ,1703025585
464,quellon,-43.1167,-73.6167,15.4,70,19,2.9,CL,1703025585
465,moussoro,13.6408,16.4901,23.54,26,16,4.71,TD,1703025585
466,puerto leguizamo,-0.1934,-74.7819,25.67,90,99,0.65,CO,1703025585
467,benoy-yurt,43.69,45.05,5.16,89,7,2.1,RU,1703025585
468,dalandzadgad,43.5708,104.425,-23.28,87,7,6.89,MN,1703025585
469,knyaze-volkonskoye,48.4642,135.4567,-29.81,99,96,0.89,RU,1703025585
470,al ghayzah,16.2079,52.176,22.8,67,0,2.41,YE,1703025585
471,rivne,50.6231,26.2274,5.6,65,100,7.32,UA,1703025585
472,hede,33.7681,120.2517,-2.33,62,4,4.92,CN,1703025585
473,ardestan,33.3761,52.3694,5.39,55,2,1.19,IR,1703025585
474,ar raqqah,35.95,39.0167,9.02,56,3,2.32,SY,1703025585
475,cuyo,10.8525,121.0086,27.27,80,78,3.83,PH,1703025585
476,cinco saltos,-38.8222,-68.0629,18.85,39,0,4.63,AR,1703025585
477,rodniki,57.1051,41.7305,1.49,96,100,6.76,RU,1703025585
478,baidoa,3.1138,43.6498,23.6,76,92,4.73,SO,1703025585
479,fortuna,40.5982,-124.1573,15.92,88,0,7.2,US,1703025586
480,lihue,21.9789,-159.3672,25.58,76,75,10.29,US,1703025512
481,nantucket,41.2835,-70.0995,6.08,70,0,5.14,US,1703025513
482,santana,-0.0583,-51.1817,31.1,70,20,5.66,BR,1703025586
483,verdal,63.7933,11.4817,1.02,78,97,2.42,NO,1703025586
484,nadym,65.5333,72.5167,-15.29,96,91,5.66,RU,1703025586
485,bandarbeyla,9.4942,50.8122,24.42,80,44,8.0,SO,1703025586
486,mzimba,-11.9,33.6,21.97,68,88,3.5,MW,1703025586
487,cabedelo,-6.9811,-34.8339,26.37,83,95,4.15,BR,1703025340
488,dan sadau,11.2962,6.4952,22.05,26,2,2.63,NG,1703025586
489,manado,1.487,124.8455,24.43,94,20,0.51,ID,1703025586
490,guerrero negro,27.9769,-114.0611,21.2,53,83,5.89,MX,1703025586
491,qarah bagh,34.9402,61.7759,0.77,90,94,2.7,AF,1703025586
492,zomba,-15.386,35.3188,21.59,91,100,1.36,MW,1703025586
493,taro,-8.3862,115.28,21.03,78,63,0.85,ID,1703025586
494,conception bay south,47.4999,-52.9981,13.02,88,100,9.58,CA,1703025586
495,lindsdal,56.7333,16.3,4.47,88,22,4.12,SE,1703025586
496,primorsk,46.7348,36.3443,5.96,92,46,3.97,UA,1703025586
497,naracoorte,-36.9579,140.7383,16.1,43,0,6.62,AU,1703025587
498,kone,-21.0595,164.8658,31.02,50,0,1.67,NC,1703025587
499,adam,22.3756,57.5233,16.48,72,4,1.65,OM,1703025587
500,fray luis beltran,-39.3167,-65.7667,16.33,34,100,1.95,AR,1703025587
501,jegunovce,42.0736,21.1236,-4.01,63,35,1.1,MK,1703025587
502,keflavik,64.0049,-22.5624,2.24,60,75,6.17,IS,1703025587
503,rumoi,43.9344,141.6428,-3.76,78,100,6.15,JP,1703025559
504,cruzeiro do sul,-29.5128,-51.9853,23.62,84,100,2.93,BR,1703025587
505,encruzilhada do sul,-30.5439,-52.5219,16.57,95,100,6.53,BR,1703025340
506,kalmunai,7.4167,81.8167,25.35,88,73,2.99,LK,1703025587
507,buritis,-15.6178,-46.4233,25.18,62,98,1.63,BR,1703025587
508,vieste,41.8825,16.175,12.96,63,69,0.97,IT,1703025587
509,orkney,-26.9802,26.6727,24.55,45,48,3.76,ZA,1703025587
510,susuman,62.7833,148.1667,-36.36,100,97,0.48,RU,1703025587
511,portland,45.5234,-122.6762,14.6,86,75,7.72,US,1703025481
512,guelendeng,10.9176,15.5501,24.45,26,94,3.09,TD,1703025587
513,papao,-17.75,-149.55,27.82,76,100,4.15,PF,1703025587
514,vorgashor,67.5833,63.95,-16.05,92,99,3.8,RU,1703025587
515,happy valley-goose bay,53.3168,-60.3315,7.17,81,100,5.14,CA,1703025588
516,basse-terre,16.1667,-61.6667,22.58,78,0,1.54,GP,1703025384
517,toliara,-23.35,43.6667,24.94,73,84,7.41,MG,1703025588
518,sidney,-33.8679,151.2073,18.51,92,75,13.89,AU,1703025462
519,madimba,-10.4,40.3333,27.9,83,100,5.3,TZ,1703025588
520,tual,-5.6667,132.75,28.56,76,100,6.43,ID,1703025588
521,tamandare,-8.7597,-35.1047,25.02,88,100,3.53,BR,1703025588
522,mejit,10.2753,170.8646,27.14,78,87,10.85,MH,1703025588
523,sparta,43.9441,-90.8129,1.74,48,100,3.6,US,1703025588
524,mirzapur,25.15,82.5833,12.17,45,99,2.08,IN,1703025588
525,fiche,9.8,38.7333,13.39,65,100,0.97,ET,1703025588
526,xai-xai,-25.0519,33.6442,23.02,92,72,1.68,MZ,1703025588
527,alofi,-19.0595,-169.9187,28.94,74,75,9.26,NU,1703025588
528,al hawatah,13.4167,34.6333,26.95,24,0,3.03,SD,1703025588
529,lubango,-14.9172,13.4925,18.92,94,75,2.57,AO,1703025515
530,ceeldheer,3.8488,47.1806,25.77,80,92,9.06,SO,1703025588
531,belmonte,-15.8631,-38.8828,20.89,92,95,4.64,BR,1703025589
532,yung shue wan,22.2333,114.1167,14.23,72,13,6.25,HK,1703025589
533,callao,-12.0667,-77.15,23.16,73,0,7.2,PE,1703025589
534,grand baie,-20.0182,57.5802,24.26,91,94,1.34,MU,1703025589
535,nogales,31.3086,-110.9422,23.76,10,20,6.22,MX,1703025365
536,carolina beach,34.0352,-77.8936,6.71,55,0,5.0,US,1703025445
537,saint-denis,48.9167,2.3333,9.27,92,0,4.63,FR,1703025589
538,colonia,50.9333,6.95,8.36,92,75,4.63,DE,1703025589
539,labrador city,52.9463,-66.9114,-9.05,86,100,1.54,CA,1703025589
540,camayenne,9.535,-13.6878,27.2,74,35,5.71,GN,1703025589
541,galesong,-5.3166,119.3661,23.01,70,87,0.39,ID,1703025589
542,popondetta,-8.7537,148.2534,25.9,87,100,0.41,PG,1703025589
543,candido de abreu,-24.5669,-51.3333,21.56,98,100,1.89,BR,1703025589
544,crescent city,41.756,-124.2018,13.19,100,100,4.63,US,1703025589
545,cabo,-8.2833,-35.0333,25.96,87,100,2.0,BR,1703025589
546,kamikawa,43.84,142.7711,-7.44,92,100,2.47,JP,1703025589
547,taquari,-29.7997,-51.8644,23.51,90,100,3.12,BR,1703025447
548,hanceville,34.0607,-86.7675,7.53,44,6,2.0,US,1703025589
549,nishiwaki,34.9833,134.9667,5.62,78,94,0.75,JP,1703025589
550,tumpat,6.1978,102.171,25.99,89,20,0.0,MY,1703025589
551,korsor,55.3299,11.1386,4.43,100,58,8.15,DK,1703025590
552,cuito,-12.3833,16.9333,17.07,90,100,1.59,AO,1703025590
553,whakatane,-37.9585,176.9854,24.17,80,13,2.68,NZ,1703025438
554,medicine hat,50.0501,-110.6683,4.36,66,75,1.54,CA,1703025297
555,meadow lakes,61.6247,-149.6011,-1.19,83,100,0.0,US,1703025590
556,val-d'or,48.1002,-77.7828,-10.95,85,40,3.09,CA,1703025531
557,altay,47.8667,88.1167,-10.69,73,100,0.18,CN,1703025590
558,karratha,-20.7377,116.8463,24.46,67,2,5.56,AU,1703025590
559,yuzhno-kurilsk,44.0306,145.8556,-2.57,76,91,2.22,RU,1703025590
560,caluula,11.9661,50.7569,24.94,82,91,5.65,SO,1703025590
561,bethanie,-26.4833,17.15,24.38,26,0,2.09,NA,1703025590
562,prince rupert,54.3161,-130.3201,6.05,100,100,4.63,CA,1703025590
563,achinsk,56.2694,90.4993,-20.17,69,22,5.81,RU,1703025590
564,burnie,-41.0667,145.9167,15.81,47,0,1.55,AU,1703025590
565,azul,-36.777,-59.8585,15.71,69,57,4.11,AR,1703025590
566,lander,42.833,-108.7307,8.33,56,0,1.54,US,1703025590
567,phalodi,27.1333,72.3667,15.09,27,43,2.12,IN,1703025590
568,strezhevoy,60.7333,77.5889,-11.09,95,100,3.81,RU,1703025590
569,newman,37.3138,-121.0208,18.19,89,99,2.24,US,1703025590
570,kovalam,8.3667,76.9967,28.05,78,20,1.54,IN,1703025591
571,xilin hot,43.9667,116.0333,-30.64,93,73,1.54,CN,1703025591
572,och'amch'ire,42.7123,41.4686,6.78,68,9,1.84,GE,1703025591
573,gafargaon,24.4333,90.5667,16.62,80,4,1.47,BD,1703025591
574,terra santa,-2.1042,-56.4869,25.2,90,83,1.51,BR,1703025591
575,al jawf,29.5,38.75,9.78,62,0,3.65,SA,1703025591
576,sao joao da barra,-21.6403,-41.0511,26.05,82,0,2.46,BR,1703025545
577,roma,43.2128,-75.4557,-2.16,83,100,6.17,US,1703025293
578,martapura,-3.4167,114.85,26.05,94,40,2.57,ID,1703025591
579,abashiri,44.0213,144.2697,-5.46,72,100,2.11,JP,1703025591
580,howard springs,-12.497,131.047,30.49,92,100,3.22,AU,1703025591
581,satellite beach,28.1761,-80.5901,15.59,75,0,7.72,US,1703025591
